[
  {
    "id": "ishigaki-music-fes-2025",
    "title": "いしがき MUSIC FESTIVAL 2025",
    "description": "盛岡市内各所にステージが設置される街なか音楽フェス（主会場：盛岡城跡公園）。",
    "date": "2025-09-28",
    "locationName": "盛岡城跡公園(岩手公園)",
    "latitude": 39.7015,
    "longitude": 141.1528,
    "category": "音楽",
    "officialUrl": "https://ishigaki-fes.jp/"
  },
  {
    "id": "morioka-aki-matsuri-2025-dashi",
    "title": "盛岡秋まつり（山車行事）",
    "description": "豪華絢爛な山車が市内を巡行する盛岡の秋の風物詩。",
    "date": "2025-09-14 - 2025-09-16",
    "locationName": "盛岡八幡宮・市内巡行",
    "latitude": 39.6996,
    "longitude": 141.1560,
    "category": "祭り",
    "officialUrl": "https://www.odette.or.jp/?p=829"
  },
  {
    "id": "morioka-hachimangu-reitaisai-2025",
    "title": "盛岡八幡宮 例大祭（宵宮祭〜本祭）",
    "description": "盛岡八幡宮の年に一度の大祭。期間中に神事や奉納行事が行われます。",
    "date": "2025-09-12 - 2025-09-16",
    "locationName": "盛岡八幡宮",
    "latitude": 39.6996,
    "longitude": 141.1560,
    "category": "祭り",
    "officialUrl": "https://iwatetabi.jp/events/9154/"
  },
  {
    "id": "morioka-yabusame-2025",
    "title": "盛岡八幡宮 神事流鏑馬",
    "description": "盛岡八幡宮境内馬場で行われる伝統神事の流鏑馬。",
    "date": "2025-09-16",
    "locationName": "盛岡八幡宮 境内馬場",
    "latitude": 39.6996,
    "longitude": 141.1560,
    "category": "伝統行事",
    "officialUrl": "https://iwatetabi.jp/events/9154/"
  },
  {
    "id": "odette-yataimura-2025",
    "title": "おでって屋台村（盛岡秋まつり連動）",
    "description": "おでって広場に地元グルメが集まる屋台村。",
    "date": "2025-09-13 - 2025-09-16",
    "locationName": "プラザおでって広場",
    "latitude": 39.7019,
    "longitude": 141.1495,
    "category": "フード",
    "officialUrl": "https://www.odette.or.jp/plaza-odette/?page_id=644"
  },
  {
    "id": "zaimokucho-yoichi-2025-0906",
    "title": "材木町よ市（9/6）",
    "description": "4月〜11月の毎週土曜に開催される路上市（9/6開催分）。",
    "date": "2025-09-06",
    "locationName": "材木町商店街",
    "latitude": 39.7020,
    "longitude": 141.1300,
    "category": "マルシェ",
    "officialUrl": "https://www.zaimokucho-yoichi.com/"
  },
  {
    "id": "zaimokucho-yoichi-coffee-2025-0920",
    "title": "材木町よ市 コーヒーマルシェ（9/20）",
    "description": "よ市特別企画。盛岡・矢巾の珈琲店が集うコーヒーマルシェ。",
    "date": "2025-09-20",
    "locationName": "材木町商店街",
    "latitude": 39.7020,
    "longitude": 141.1300,
    "category": "マルシェ",
    "officialUrl": "https://www.hotel-ace.co.jp/盛岡材木町-よ市-ふれあい楽しい路上買物市/"
  },
  {
    "id": "morireki-kinzan-2025",
    "title": "企画展『金山を開発せよ』",
    "description": "「大槌金沢金山之図」制作に迫る企画展。",
    "date": "2025-08-09 - 2025-10-26",
    "locationName": "もりおか歴史文化館（1F企画展示室）",
    "latitude": 39.7010,
    "longitude": 141.1492,
    "category": "展覧会",
    "officialUrl": "https://www.morireki.jp/"
  },
  {
    "id": "morireki-nitobe-2025",
    "title": "特集展示『稲造以前のこと − 盛岡藩士・新渡戸一族 −』",
    "description": "盛岡藩士・新渡戸一族に焦点を当てた特集展示。",
    "date": "2025-07-18 - 2025-11-17",
    "locationName": "もりおか歴史文化館",
    "latitude": 39.7010,
    "longitude": 141.1492,
    "category": "展覧会",
    "officialUrl": "https://www.morireki.jp/"
  },
  {
    "id": "morioka-city-marathon-2025",
    "title": "いわて盛岡シティマラソン2025",
    "description": "盛岡の街を駆け抜けるフルマラソン。",
    "date": "2025-10-19",
    "locationName": "盛岡市内コース（スタート/フィニッシュ：市内）",
    "latitude": 39.7036,
    "longitude": 141.1526,
    "category": "スポーツ",
    "officialUrl": "https://iwate-morioka-city-marathon.jp/"
  },
  {
    "id": "zoomo-backyard-tour-2025-0915",
    "title": "ZOOMO バックヤードツアー（寄付型プログラム）",
    "description": "普段非公開の施設をスタッフ解説で巡る寄付型ツアー。",
    "date": "2025-09-15",
    "locationName": "盛岡市動物公園 ZOOMO",
    "latitude": 39.6670,
    "longitude": 141.1080,
    "category": "体験",
    "officialUrl": "https://zoomo.co.jp/event/"
  },
  {
    "id": "machinaka-sansa-2025-0921",
    "title": "街なかさんさ踊り（第3日曜）",
    "description": "市内中心部で行われるさんさ踊りのステージ。子ども連も参加し、家族で楽しめます。",
    "date": "2025-09-21",
    "locationName": "プラザおでって広場 ほか",
    "latitude": 39.7019,
    "longitude": 141.1495,
    "category": "子ども",
    "officialUrl": "https://hellomorioka.jp/event-topics/12123/"
  },
  {
    "id": "kodomo-kagakukan-kenkyu-2025-0913",
    "title": "岩手県科学研究発表会（盛岡市子ども科学館）",
    "description": "小学生の理科作品展示・研究発表（観覧可）。",
    "date": "2025-09-13",
    "locationName": "盛岡市子ども科学館 プラネタリウム室",
    "latitude": 39.6830,
    "longitude": 141.1370,
    "category": "子ども",
    "officialUrl": "https://kodomokagakukan.com/"
  },
  {
    "id": "zoomo-night-zoo-2025-0915",
    "title": "ホントの夜の動物園（ZOOMO）",
    "description": "夜の動物たちの暮らしに配慮した観察プログラム。",
    "date": "2025-09-15",
    "locationName": "盛岡市動物公園 ZOOMO",
    "latitude": 39.6670,
    "longitude": 141.1080,
    "category": "子ども",
    "officialUrl": "https://zoomo.co.jp/event/night_zoo/"
  },
  {
    "id": "zoomo-monkey-feed-2025-09",
    "title": "ニホンザルのごはん（体験）",
    "description": "飼育員の解説付きでサルの給餌を観察・学習（開催日程は園の案内をご確認ください）。",
    "date": "2025-09-01 - 2025-09-30",
    "locationName": "盛岡市動物公園 ZOOMO",
    "latitude": 39.6670,
    "longitude": 141.1080,
    "category": "子ども",
    "officialUrl": "https://iko-yo.net/facilities/4260"
  },
  {
    "id": "morioka-city-library-ohanashi-2025-09",
    "title": "盛岡市立図書館 おはなし会（9月）",
    "description": "絵本の読み聞かせ等の子ども向け行事。詳細は行事予定をご確認ください。",
    "date": "2025-09-01 - 2025-09-30",
    "locationName": "盛岡市立図書館",
    "latitude": 39.7207,
    "longitude": 141.1469,
    "category": "子ども",
    "officialUrl": "https://www.city.morioka.iwate.jp/kosodate/tosho/1040089.html"
  }
]
